{"pageProps":{"cafes":[{"fotos":["001.png","002.png"],"formasdepgto":[],"cidade":"Curitiba","_id":"5e30ce42c8b99924e8daa651","fotodestaque":"mansaomerano.jpg","nome":"Restaurante e Café Colonial Mansão Merano","categoria":null,"avatar":"/assets/img/sem-foto.png","descricao":"Café colonial","telefone":"4196814189","endereco":"Av. Manoel Ribas, 6972 - Santa Felicidade, Curitiba - PR, Brasil","url":"restaurante-e-cafe-colonial-mansao-merano","geometry":{"type":"Point","_id":"5e30ceead6261724d00e508d","coordinates":[-25.3996721,-49.3368557]},"__v":0},{"fotos":{"todas":[]},"formasdepgto":[],"cidade":"Curitiba","_id":"5e75b835903f563a8857ec0d","fotodestaque":"couerdoce.jpg","nome":"Coeur Doce","categoria":null,"avatar":"/assets/img/sem-foto.png","descricao":"","telefone":"","endereco":"R. Atílio Bório, 539 - Cristo Rei, Curitiba - PR, Brasil","url":"coeur-doce","geometry":{"type":"Point","_id":"5e75b835903f563a8857ec0e","coordinates":[-25.430425,-49.2532381]},"__v":0},{"fotos":{"todas":[]},"formasdepgto":[],"cidade":"Curitiba","_id":"5e75b898903f563a8857ec26","nome":"Aquarius Gastronomia","categoria":null,"avatar":"/assets/img/sem-foto.png","descricao":"","telefone":"","endereco":"Avenida Prefeito Erasto Gaertner, 363 - Bacacheri, Curitiba - PR, Brasil","url":"aquarius-gastronomia","geometry":{"type":"Point","_id":"5e75b898903f563a8857ec27","coordinates":[-25.4031375,-49.2429236]},"__v":0},{"fotos":{"todas":[]},"formasdepgto":[],"cidade":"Curitiba","_id":"5e75b8c5903f563a8857ec2b","nome":"Confeitaria Piegel","categoria":null,"avatar":"/assets/img/sem-foto.png","descricao":"","telefone":"","endereco":"Avenida Anita Garibaldi, 558 - Cabral, Curitiba - PR, Brasil","url":"confeitaria-piegel","geometry":{"type":"Point","_id":"5e75b8c5903f563a8857ec2c","coordinates":[-25.4068527,-49.2566956]},"__v":0},{"fotos":{"todas":[]},"formasdepgto":[],"cidade":"Curitiba","_id":"5e75b8dd903f563a8857ec31","nome":"Confeitaria Neuchatel","categoria":null,"avatar":"/assets/img/sem-foto.png","descricao":"","telefone":"","endereco":"Avenida Vicente Machado, 643 - Centro, Curitiba - PR, Brasil","url":"confeitaria-neuchatel","geometry":{"type":"Point","_id":"5e75b8dd903f563a8857ec32","coordinates":[-25.4356662,-49.282804]},"__v":0},{"fotos":{"todas":[]},"formasdepgto":[],"cidade":"Curitiba","_id":"5e75b8f1903f563a8857ec38","nome":"Pantucci","categoria":null,"avatar":"/assets/img/sem-foto.png","descricao":"","telefone":"","endereco":"Rua Professor Sebastião Paraná, 270 - Vila Izabel, Curitiba - PR, Brasil","url":"pantucci","geometry":{"type":"Point","_id":"5e75b8f1903f563a8857ec39","coordinates":[-25.4603004,-49.2924413]},"__v":0},{"fotos":{"todas":[]},"formasdepgto":[],"cidade":"Curitiba","_id":"5e75b926903f563a8857ec40","nome":"Saint Germain","categoria":null,"avatar":"/assets/img/sem-foto.png","descricao":"","telefone":"","endereco":"Avenida Visconde de Guarapuava, 4882 - Batel, Curitiba - PR, Brasil","url":"saint-germain","geometry":{"type":"Point","_id":"5e75b926903f563a8857ec41","coordinates":[-25.4439689,-49.2876681]},"__v":0},{"fotos":{"todas":[]},"formasdepgto":[],"cidade":"Curitiba","_id":"5e75b94a903f563a8857ec49","nome":"Empório Kaminski","categoria":null,"avatar":"/assets/img/sem-foto.png","descricao":"","telefone":"","endereco":"Avenida Sete de Setembro, 6355 - Seminário, Curitiba - PR, Brasil","url":"emporio-kaminski","geometry":{"type":"Point","_id":"5e75b94a903f563a8857ec4a","coordinates":[-25.4502183,-49.2986013]},"__v":0},{"fotos":{"todas":[]},"formasdepgto":[],"cidade":"Curitiba","_id":"5e75b963903f563a8857ec53","nome":"Leve Sabor","categoria":null,"avatar":"/assets/img/sem-foto.png","descricao":"","telefone":"","endereco":"Avenida Victor Ferreira do Amaral, 315 - Tarumã, Curitiba - PR, Brasil","url":"leve-sabor","geometry":{"type":"Point","_id":"5e75b963903f563a8857ec54","coordinates":[-25.4274099,-49.2369344]},"__v":0},{"fotos":{"todas":[]},"formasdepgto":[],"cidade":"Colombo","_id":"5e75b97f903f563a8857ec5e","nome":"É da Pam","categoria":null,"avatar":"/assets/img/edapam.png","descricao":"","telefone":"","endereco":"Estrada Da Ribeira Br 476, 12485 - Guaraituba, Colombo - Paraná, Brasil","url":"e-da-pam","geometry":{"type":"Point","_id":"5e75b97f903f563a8857ec5f","coordinates":[-25.3547093,-49.1805873]},"__v":0},{"fotos":{"todas":[]},"formasdepgto":[],"cidade":"Curitiba","_id":"5e75b996903f563a8857ec6a","nome":"Chez Arnold","categoria":null,"avatar":"/assets/img/sem-foto.png","descricao":"","telefone":"","endereco":"Avenida Manoel Ribas, 526 - Mercês, Curitiba - PR, Brasil","url":"chez-arnold","geometry":{"type":"Point","_id":"5e75b996903f563a8857ec6b","coordinates":[-25.4222225,-49.2839648]},"__v":0},{"fotos":{"todas":[]},"formasdepgto":[],"cidade":"Curitiba","_id":"5e75b9bf903f563a8857ec8d","nome":"Confeitaria Valbella","categoria":null,"avatar":"/assets/img/sem-foto.png","descricao":"","telefone":"","endereco":"Rua Augusto Stresser, 561 - Juvevê, Curitiba - PR, Brasil","url":"confeitaria-valbella","geometry":{"type":"Point","_id":"5e75b9bf903f563a8857ec8e","coordinates":[-25.4168968,-49.2564449]},"__v":0},{"fotos":{"todas":[]},"formasdepgto":[],"cidade":"Curitiba","_id":"5e75b9d4903f563a8857ec9b","nome":"Café Avenida","categoria":null,"avatar":"/assets/img/sem-foto.png","descricao":"","telefone":"","endereco":"Avenida Manoel Ribas, 5647 - Santa Felicidade, Curitiba - PR, Brasil","url":"cafe-avenida","geometry":{"type":"Point","_id":"5e75b9d4903f563a8857ec9c","coordinates":[-25.4062638,-49.3265623]},"__v":0},{"fotos":{"todas":[]},"formasdepgto":[],"cidade":"Almirante Tamandaré","_id":"5e75b9ee903f563a8857ecaa","nome":"Delícias da Oma","categoria":null,"avatar":"/assets/img/sem-foto.png","descricao":"","telefone":"","endereco":"Avenida Doutor Eugênio Bertolli, 3921 - Santa Felicidade, Almirante Tamandaré - PR, Brasil","url":"delicias-da-oma","geometry":{"type":"Point","_id":"5e75b9ee903f563a8857ecab","coordinates":[-25.3685861,-49.3263893]},"__v":0},{"fotos":{"todas":[]},"formasdepgto":[],"cidade":"Curitiba","_id":"5e75ba03903f563a8857ecba","nome":"Brioche","categoria":null,"avatar":"/assets/img/sem-foto.png","descricao":"","telefone":"","endereco":"Rua Augusto Stresser, 839 - Juvevê, Curitiba - PR, Brasil","url":"brioche","geometry":{"type":"Point","_id":"5e75ba03903f563a8857ecbb","coordinates":[-25.4166341,-49.2537131]},"__v":0},{"fotos":{"todas":[]},"formasdepgto":[],"cidade":"Curitiba","_id":"5e76a2bc2709bd1ee85d7d7b","nome":"Neuchatel","categoria":null,"avatar":"/assets/img/sem-foto.png","descricao":"","telefone":"","endereco":"Avenida Vicente Machado, 64 - Centro, Curitiba - PR, Brasil","url":"neuchatel","geometry":{"type":"Point","_id":"5e76a2bc2709bd1ee85d7d7c","coordinates":[-25.4333228,-49.2777072]},"__v":0},{"fotos":{"todas":[]},"formasdepgto":[],"cidade":"São José dos Pinhais","_id":"5e76a3152709bd1ee85d7d8d","nome":"Casarão Café Colonial","categoria":null,"avatar":"/assets/img/sem-foto.png","descricao":"","telefone":"","endereco":"R. João Berger, 591 - Colônia Murici, São José dos Pinhais - PR, Brasil","url":"casarao-cafe-colonial","geometry":{"type":"Point","_id":"5e76a3152709bd1ee85d7d8e","coordinates":[-25.5628462,-49.1248921]},"__v":0},{"fotos":{"todas":[]},"formasdepgto":[],"cidade":"Curitiba","_id":"5e76a3642709bd1ee85d7dc2","nome":"Piegel Confeitaria","categoria":null,"avatar":"/assets/img/sem-foto.png","descricao":"","telefone":"","endereco":"Av. Anita Garibaldi, 548 - Cabral, Curitiba - PR, Brasil","url":"piegel-confeitaria","geometry":{"type":"Point","_id":"5e76a3642709bd1ee85d7dc3","coordinates":[-25.4068575,-49.2566858]},"__v":0},{"fotos":{"todas":[]},"formasdepgto":[],"cidade":"Curitiba","_id":"5e76a3fe2709bd1ee85d7dd6","nome":"Confeitaria Requinte","categoria":null,"avatar":"/assets/img/sem-foto.png","descricao":"","telefone":"","endereco":"R. Francisco Rocha, 1809 - Bigorrilho, Curitiba - PR, Brasil","url":"confeitaria-requinte","geometry":{"type":"Point","_id":"5e76a3fe2709bd1ee85d7dd7","coordinates":[-25.4307287,-49.2960091]},"__v":0}]},"__N_SSG":true}